[
  {
    "name": "Автомагазин VTK знижка від 5% до 10%",
    "address": "Полтава, вул. Решетилівська (Маршала Бірюзова), 13",
    "category": "Автозапчастини",
    "lat": 49.5992,
    "lng": 34.5272
  },
  {
    "name": "Квіти Royal Flowers знижка 10%",
    "address": "Полтава, вул. Панянка, 75",
    "category": "Магазин",
    "lat": 49.5832, 
    "lng": 34.5826
  },
    {
    "name": "Послуги масажу від Massage House знижка 10%",
    "address": "Полтава, вул. Пилипа Орлика, 29",
    "category": "Аптека",
    "lat": 49.58940,
    "lng": 34.55763
  },
  {
    "name": "Канцтовари Lastik знижка від 5% до 10%",
    "address": "м. Полтава, вул. Раїси Кириченко, 7",
    "category": "Магазин",
    "lat": 49.58694,
    "lng": 34.54466
  },
  {
    "name": "«Автоточка знижка 3%»",
    "address": "Градизьк, вул. Київська, 24",
    "category": "Автозапчастини",
    "lat": 49.23721, 
    "lng": 33.14436
  },
   {
    "name": "Зелений світ знижка 3%",
    "address": "Градизьк, вул. Київська, 45/15А",
    "category": "Магазин",
    "lat": 49.2389,
    "lng": 33.1404
  },
     {
    "name": "ВАТЕРПАС знижка 3%",
    "address": "Градизьк, вул. Київська, 18/21",
    "category": "Магазин",
    "lat": 49.23671,
    "lng": 33.14529
  },
       {
    "name": "Ветаптека знижка 5%",
    "address": "Градизьк, вул. Київська, 45/15",
    "category": "Аптека",
    "lat": 49.2389,
    "lng": 33.1404
  },
  {
    "name": "«Екзотика» знижка 7%",
    "address": "м. Лубни, проспект Володимирський, 1/5",
    "category": "Магазин",
    "lat": 50.01259,
    "lng": 33.00287
  },
  {
    "name": "Жіночий одяг «Силует» знижка 10%",
    "address": "м. Лубни, пр-т Володимирський 27/49",
    "category": "Магазин",
    "lat": 50.01713,
    "lng": 32.99840
  },
  {
    "name": "Кафе «У Гайдука» знижка 5% крім алкоголю",
    "address": "м. Лубни, проспект Володимирський, 16",
    "category": "Ресторан",
    "lat": 50.01549,
    "lng": 33.00239
  },
  {
    "name": "Будівельний магазин «Mini-max» знижка 5-10%",
    "address": "м. Лубни, вулиця Фабрична, 4",
    "category": "Магазин",
    "lat": 50.02799,
    "lng": 32.97128
  },
  {
    "name": "Ритуальні послуги «Янгол» знижка 5-10%",
    "address": "м. Лубни, вул. Садова, 25",
    "category": "Магазин",
    "lat": 50.02123,
    "lng": 32.99638
  },
  {
    "name": "Ресторан • кавʼярня ЗДОБНИЙ 15% крім алкоголю",
    "address": "м. Лубни, вул. Тютюнника, 11",
    "category": "Ресторан",
    "lat": 50.012136601840325,
    "lng": 33.00192250568612
  },
  {
    "name": "АЗС Автотранс — Вавілова 1а",
    "address": "м. Полтава, вул. Вавілова, 1а",
    "category": "АЗС",
    "lat": 49.56539,
    "lng": 34.57491
  },
  {
    "name": "АЗС Автотранс — Зіньківська 37а",
    "address": "м. Полтава, вул. Зіньківська, 37а",
    "category": "АЗС",
    "lat": 49.61483,
    "lng": 34.52955
  },
  {
    "name": "АЗС Автотранс — Героїв ОУН, 15",
    "address": "м. Полтава, Героїв ОУН, 15",
    "category": "АЗС",
    "lat": 49.59818,
    "lng": 34.49446
  },
    {
    "name": "АЗС Автотранс — Автодорога Київ-Харків",
    "address": "Автодорога Київ-Харків",
    "category": "АЗС",
    "lat": 49.55511,
    "lng": 34.54580
  },
  {
    "name": "АЗС Автотранс — Європейська, 160",
    "address": "м. Полтава, вул. Європейська, 160",
    "category": "АЗС",
    "lat": 49.55016,
    "lng": 34.51543
  },
  {
    "name": "АЗС Автотранс — Панянки 19",
    "address": "м. Полтава, вул. Панянки, 19",
    "category": "АЗС",
    "lat": 49.58697,
    "lng": 34.57346
  },
  {
    "name": "АЗС Автотранс - Кременчуцька вулиця, 1Д",
    "address": "м. Полтава, Кременчуцька вулиця, 1Д",
    "category": "АЗС",
    "lat": 49.57402,
    "lng": 34.59562
  },
  {
    "name": "АЗС Автотранс — Чумацький шлях, 66В",
    "address": "м. Полтава, Чумацький шлях, 66В",
    "category": "АЗС",
    "lat": 49.59237,
    "lng": 34.49644
  },
  {
    "name": "АЗС Автотранс — Глобине, Дніпровська 61",
    "address": "м. Глобине, вул. Дніпровська, 61",
    "category": "АЗС",
    "lat": 49.39810,
    "lng": 33.21148
  },
  {
    "name": "АЗС Автотранс — Миргород, Гоголя 176",
    "address": "м. Миргород, вул. Гоголя, 176",
    "category": "АЗС",
    "lat": 49.98712,
    "lng": 33.58911
  },
  {
    "name": "АЗС Автотранс — Лубни, пр. Володимирський 157а",
    "address": "м. Лубни, пр. Володимирський, 157а",
    "category": "АЗС",
    "lat": 50.023528,
    "lng": 32.969785
  },
  {
    "name": "АЗС Автотранс — Горішні Плавні, Дніпровська 24",
    "address": "м. Горішні Плавні, вул. Дніпровська, 24",
    "category": "АЗС",
    "lat": 49.0358878,
    "lng": 33.6198457
  },
  {
    "name": "АЗС Автотранс — Кременчук, Бетонна 29",
    "address": "м. Кременчук, вул. Бетонна, 29",
    "category": "АЗС",
    "lat": 49.08620,
    "lng": 33.41170
  },
  {
    "name": "АЗС Автотранс — Шишаки, Кирила Осьмака 4",
    "address": "смт Шишаки, вул. Кирила Осьмака, 4",
    "category": "АЗС",
    "lat": 49.874703,
    "lng": 34.005356
  },
  {
    "name": "АЗС Автотранс — Гребінка, Магістральна 150",
    "address": "м. Гребінка, вул. Магістральна, 150",
    "category": "АЗС",
    "lat": 50.11359,
    "lng": 32.45060
  },
  {
    "name": "АЗС Автотранс — Котельва, Покровська 11",
    "address": "смт Котельва, вул. Покровська, 11",
    "category": "АЗС",
    "lat": 50.05782,
    "lng": 34.73154
  },
  {
    "name": "АЗС Автотранс — Скороходове, Гагаріна 9",
    "address": "смт Скороходове, вул. Гагаріна, 9",
    "category": "АЗС",
    "lat": 49.77480,
    "lng": 35.06812
  },
  {
    "name": "АЗС Автотранс — Велика Рублівка, Центральна 37/б",
    "address": "с. Велика Рублівка, вул. Центральна, 37/б",
    "category": "АЗС",
    "lat": 49.89354,
    "lng": 34.80013
  },
  {
    "name": "АЗС Автотранс — Нові Санжари, Пролетарська 1/а",
    "address": "смт Нові Санжари, вул. Пролетарська, 1/а",
    "category": "АЗС",
    "lat": 49.33859,
    "lng": 34.30721
  },
  {
    "name": "АЗС Автотранс — Засулля, Київська 2",
    "address": "с. Засулля, вул. Київська, 2",
    "category": "АЗС",
    "lat": 49.99243,
    "lng": 33.02833
  },
  {
    "name": "Syaivo v domi",
    "address": "Онлайн-магазин",
    "category": "Онлайн-магазини",
    "phone": "097 463 22 98",
    "instagram": "https://www.instagram.com/syaivo_v_domi?igsh=MXI2ZjM4eXVhMmtnNg==",
    "lat": null,
    "lng": null
  },
  {
    "name": "Золоте Копитце (сири)",
    "address": "Онлайн-магазин",
    "category": "Онлайн-магазини",
    "contact_person": "Олена",
    "phone": "097 444 75 18",
    "website": "https://zolotoe-kopytse.com.ua",
    "instagram": "https://www.instagram.com/syaivo_v_domi?igsh=MXI2ZjM4eXVhMmtnNg==",
    "lat": null,
    "lng": null
  }
]
